City_ID,City,Lat,Lng,Max Temp,Humidity,Cloudiness,Wind Speed,Country,Date
0,dingle,10.9995,122.6711,22.87,93,54,3.43,PH,1676223433
1,ancud,-41.8697,-73.8203,15.4,59,100,3.76,CL,1676223228
2,lebedinyy,58.5167,125.5167,-16.7,97,100,7.05,RU,1676223433
3,san andres,12.5847,-81.7006,29.01,70,40,7.2,CO,1676223433
4,albany,42.6001,-73.9662,7.91,44,99,0.07,US,1676223236
5,kavieng,-2.5744,150.7967,26.78,78,100,1.8,PG,1676223434
6,piacabucu,-10.4056,-36.4344,29.55,57,81,5.28,BR,1676223434
7,kapaa,22.0752,-159.319,23.18,88,75,10.8,US,1676223254
8,tuktoyaktuk,69.4541,-133.0374,-38.0,67,20,1.03,CA,1676223435
9,naze,28.3667,129.4833,19.51,86,52,7.27,JP,1676223435
10,ilo,-17.6394,-71.3375,24.55,75,84,2.9,PE,1676223436
11,ushuaia,-54.8,-68.3,10.81,54,75,6.17,AR,1676223403
12,udachnyy,66.4167,112.4,-34.58,100,87,1.64,RU,1676223436
13,hithadhoo,-0.6,73.0833,27.27,67,2,5.34,MV,1676223437
14,tautira,-17.7333,-149.15,27.13,78,43,5.3,PF,1676223437
15,kangaatsiaq,68.3065,-53.4641,-30.43,93,36,2.84,GL,1676223437
16,victoria,22.2855,114.1577,23.03,93,33,4.47,HK,1676223287
17,hovd,48.0056,91.6419,-14.91,96,100,0.29,MN,1676223438
18,songjianghe,42.1859,127.479,-12.73,97,100,0.15,CN,1676223438
19,dikson,73.5069,80.5464,-11.79,90,98,7.83,RU,1676223439
20,san patricio,28.017,-97.5169,18.28,37,51,2.59,US,1676223439
21,mar del plata,-38.0023,-57.5575,33.38,61,40,7.72,AR,1676223238
22,svetlogorsk,52.6333,29.7333,-4.38,90,86,3.52,BY,1676223440
23,cidreira,-30.1811,-50.2056,27.28,64,0,5.24,BR,1676223440
24,atuona,-9.8,-139.0333,25.93,75,5,7.34,PF,1676223440
25,kodiak,57.79,-152.4072,-4.27,46,0,9.77,US,1676223441
26,vaini,-21.2,-175.2,26.09,94,75,2.06,TO,1676223441
27,cape town,-33.9258,18.4232,22.71,78,40,8.23,ZA,1676223399
28,mataura,-46.1927,168.8643,10.87,98,84,0.83,NZ,1676223442
29,rio gallegos,-51.6226,-69.2181,14.03,30,75,10.55,AR,1676223442
30,butaritari,3.0707,172.7902,26.3,83,89,5.51,KI,1676223442
31,saint-pierre,-21.3393,55.4781,26.82,74,0,7.2,RE,1676223443
32,jamestown,42.097,-79.2353,6.96,38,0,2.57,US,1676223443
33,north bend,43.4065,-124.2243,6.03,100,40,2.17,US,1676223444
34,castro,-24.7911,-50.0119,23.35,80,58,0.87,BR,1676223444
35,vila velha,-20.3297,-40.2925,30.97,68,20,7.2,BR,1676223444
36,bluff,-46.6,168.3333,13.4,90,70,2.87,NZ,1676223445
37,kallaste,58.655,27.1592,1.63,93,100,8.31,EE,1676223445
38,aykhal,66.0,111.5,-28.19,100,78,1.1,RU,1676223446
39,te anau,-45.4167,167.7167,10.87,94,67,0.37,NZ,1676223343
40,opuwo,-18.0607,13.84,27.85,27,41,6.81,NA,1676223446
41,hilo,19.7297,-155.09,20.16,97,100,4.02,US,1676223161
42,kabare,-2.4683,28.8242,17.55,91,97,0.23,CD,1676223447
43,belaya gora,68.5333,146.4167,-32.39,98,100,0.49,RU,1676223447
44,bathsheba,13.2167,-59.5167,28.34,61,75,11.83,BB,1676223447
45,port alfred,-33.5906,26.891,22.88,93,53,2.24,ZA,1676223448
46,vinh,18.6667,105.6667,23.03,80,21,1.17,VN,1676223448
47,new norfolk,-42.7826,147.0587,11.07,61,15,0.45,AU,1676223449
48,saint-philippe,-21.3585,55.7679,26.77,83,74,4.62,RE,1676223449
49,broome,42.2506,-75.833,8.12,44,100,0.89,US,1676223449
50,nador,35.174,-2.9287,16.04,67,20,5.66,MA,1676223450
51,arraial do cabo,-22.9661,-42.0278,28.98,79,75,3.09,BR,1676223272
52,chuy,-33.6971,-53.4616,34.47,29,11,5.09,UY,1676223450
53,vicuna,-30.0319,-70.7081,30.98,44,0,4.19,CL,1676223451
54,dryden,49.7833,-92.7503,2.16,75,40,5.66,CA,1676223451
55,klamath falls,42.2249,-121.7817,3.26,71,0,3.58,US,1676223452
56,yellowknife,62.456,-114.3525,-21.36,77,75,2.57,CA,1676223391
57,barrow,71.2906,-156.7887,-27.99,76,0,7.2,US,1676223452
58,rikitea,-23.1203,-134.9692,25.5,70,63,0.99,PF,1676223453
59,buala,-8.145,159.5921,26.56,83,100,2.75,SB,1676223453
60,erdenet,49.0333,104.0833,-21.02,98,14,1.75,MN,1676223454
61,ulkan,57.243,107.3223,-18.04,98,95,2.3,RU,1676223454
62,jijiga,9.35,42.8,18.59,45,0,3.73,ET,1676223454
63,isangel,-19.55,169.2667,21.86,93,100,1.23,VU,1676223250
64,pacific grove,36.6177,-121.9166,12.58,80,0,2.24,US,1676223455
65,ribeira grande,38.5167,-28.7,15.22,58,75,9.77,PT,1676223455
66,bethel,41.3712,-73.414,8.84,43,0,1.54,US,1676223456
67,chokurdakh,70.6333,147.9167,-33.04,95,100,1.4,RU,1676223456
68,punta arenas,-53.15,-70.9167,11.06,50,75,8.75,CL,1676223456
69,college,64.8569,-147.8028,-19.03,76,75,0.0,US,1676223457
70,angoram,-4.0625,144.0661,23.29,99,100,0.74,PG,1676223457
71,schrobenhausen,48.55,11.2667,4.1,93,20,1.54,DE,1676223457
72,richards bay,-28.783,32.0377,26.03,83,75,5.8,ZA,1676223458
73,sabzevar,36.2126,57.6819,1.95,100,100,1.01,IR,1676223458
74,grand gaube,-20.0064,57.6608,26.22,67,78,2.68,MU,1676223459
75,faanui,-16.4833,-151.75,27.22,76,100,5.14,PF,1676223459
76,puerto ayora,-0.7393,-90.3518,30.98,88,48,3.58,EC,1676223459
77,puerto escondido,15.85,-97.0667,27.46,83,20,3.6,MX,1676223460
78,obihiro,42.9172,143.2044,-8.0,92,89,1.12,JP,1676223460
79,urucui,-7.2294,-44.5561,34.86,32,99,3.26,BR,1676223461
80,katsuura,35.1333,140.3,14.01,83,100,8.81,JP,1676223461
81,nyaunglebin,17.95,96.7333,19.24,61,0,2.28,MM,1676223461
82,coahuayana,18.7333,-103.6833,32.65,28,0,2.76,MX,1676223462
83,matara,5.9485,80.5353,25.01,82,86,1.88,LK,1676223462
84,necochea,-38.5473,-58.7368,33.77,33,46,4.93,AR,1676223462
85,virginia beach,36.8529,-75.978,11.68,86,100,11.32,US,1676223172
86,marawi,7.9986,124.2928,19.25,96,98,0.17,PH,1676223463
87,erdaojiang,41.7764,126.0319,-12.38,98,89,1.18,CN,1676223463
88,pingliang,35.5392,106.6861,-0.88,95,100,4.42,CN,1676223464
89,provideniya,64.3833,-173.3,-29.41,94,72,3.53,RU,1676223464
90,hirara,24.8,125.2833,22.62,81,20,5.66,JP,1676223464
91,tonj,7.2737,28.6822,32.19,21,23,2.09,SS,1676223465
92,upernavik,72.7868,-56.1549,-25.51,92,100,2.27,GL,1676223465
93,lowestoft,52.4752,1.7516,8.14,86,74,2.37,GB,1676223465
94,cabo san lucas,22.8909,-109.9124,25.9,23,40,5.14,MX,1676223466
95,tura,25.5198,90.2201,17.08,40,0,0.48,IN,1676223466
96,arman,59.7,150.1667,-17.65,95,100,2.87,RU,1676223466
97,kaitangata,-46.2817,169.8464,11.04,95,50,1.44,NZ,1676223467
98,aldan,58.6031,125.3894,-15.84,95,100,5.8,RU,1676223467
99,hermanus,-34.4187,19.2345,22.67,75,58,3.02,ZA,1676223468
100,kendari,-3.945,122.4989,24.05,94,99,1.04,ID,1676223468
101,hofn,64.2539,-15.2082,1.29,96,99,2.33,IS,1676223468
102,znamenskoye,57.1281,73.8282,-24.74,100,70,1.25,RU,1676223469
103,modasa,23.4667,73.3,20.79,19,0,3.79,IN,1676223469
104,busselton,-33.65,115.3333,15.42,74,0,5.21,AU,1676223469
105,mporokoso,-9.3727,30.125,17.3,91,94,0.34,ZM,1676223257
106,dzilam gonzalez,21.2833,-88.9333,23.6,47,9,3.63,MX,1676223470
107,khorinsk,52.1657,109.7726,-20.49,93,89,1.68,RU,1676223470
108,severo-kurilsk,50.6789,156.125,-8.28,62,73,1.47,RU,1676223471
109,port lincoln,-34.7333,135.8667,14.81,75,19,5.4,AU,1676223471
110,airai,-8.9266,125.4092,15.28,95,100,1.4,TL,1676223471
111,nikolskoye,59.7035,30.7861,-1.06,95,100,4.73,RU,1676223472
112,cody,44.5263,-109.0565,7.36,38,0,2.68,US,1676223472
113,xining,36.6167,101.7667,-5.77,89,100,1.57,CN,1676223472
114,avarua,-21.2078,-159.775,25.03,94,75,1.54,CK,1676223473
115,borogontsy,62.6683,131.1683,-31.3,97,100,2.54,RU,1676223473
116,okhotsk,59.3833,143.3,-23.83,88,100,5.47,RU,1676223474
117,ialibu,-6.2821,143.9935,14.15,97,100,0.72,PG,1676223474
118,anaconda,46.1285,-112.9423,-14.45,63,49,2.28,US,1676223475
119,itacarambi,-15.1022,-44.0919,32.25,37,83,1.61,BR,1676223475
120,vallenar,-28.5708,-70.7581,30.63,31,0,3.79,CL,1676223476
121,yei,4.095,30.6779,29.95,20,60,2.12,SS,1676223476
122,pitimbu,-7.4706,-34.8086,31.33,70,100,5.55,BR,1676223476
123,barra do bugres,-15.0725,-57.1811,31.63,51,99,2.23,BR,1676223477
124,luanda,-8.8368,13.2343,26.29,76,31,6.74,AO,1676223290
125,sao felix do xingu,-6.6447,-51.995,30.42,65,27,0.97,BR,1676223477
126,comodoro rivadavia,-45.8667,-67.5,18.92,24,0,5.14,AR,1676223477
127,constitucion,-35.3333,-72.4167,20.33,71,17,6.62,CL,1676223478
128,kochinda,21.7333,84.35,16.52,24,1,1.76,IN,1676223478
129,mahebourg,-20.4081,57.7,26.16,69,40,3.09,MU,1676223478
130,hobart,-42.8794,147.3294,11.26,72,3,2.06,AU,1676223479
131,lompoc,34.6391,-120.4579,13.8,80,0,3.09,US,1676223479
132,kalmunai,7.4167,81.8167,23.05,81,63,2.92,LK,1676223480
133,cocobeach,1.0002,9.5823,27.36,81,53,4.16,GA,1676223480
134,odessa,46.4775,30.7326,0.12,63,1,7.81,UA,1676223428
135,valparaiso,-33.0393,-71.6273,24.13,47,0,6.69,CL,1676223480
136,saskylakh,71.9167,114.0833,-38.4,96,63,3.99,RU,1676223481
137,georgetown,5.4112,100.3354,26.96,94,20,2.06,MY,1676223475
138,upata,8.0086,-62.3989,28.44,39,36,3.28,VE,1676223481
139,luderitz,-26.6481,15.1594,18.73,85,4,2.87,NA,1676223482
140,nome,64.5011,-165.4064,-18.96,71,100,4.63,US,1676223482
141,east london,-33.0153,27.9116,21.52,94,100,4.63,ZA,1676223483
142,bredasdorp,-34.5322,20.0403,23.05,68,6,3.21,ZA,1676223483
143,carmelo,-33.9892,-58.2856,40.31,15,0,5.53,UY,1676223484
144,batticaloa,7.7102,81.6924,23.69,77,72,2.83,LK,1676223484
145,qasigiannguit,68.8193,-51.1922,-21.86,93,29,0.87,GL,1676223484
146,kiama,-34.6833,150.8667,21.11,93,100,0.45,AU,1676223485
147,samarai,-10.6167,150.6667,27.53,76,97,2.22,PG,1676223485
148,urusha,54.05,122.9,-22.79,97,95,1.13,RU,1676223485
149,bambous virieux,-20.3428,57.7575,26.14,69,40,3.09,MU,1676223486
150,arlit,18.7369,7.3853,26.8,16,0,7.13,NE,1676223486
151,sinnamary,5.3833,-52.95,26.05,85,90,5.68,GF,1676223487
152,jamtara,23.95,86.8,19.09,19,0,4.78,IN,1676223487
153,srednekolymsk,67.45,153.6833,-35.84,99,100,0.34,RU,1676223487
154,adrar,20.5022,-10.0711,31.67,7,89,2.41,MR,1676223488
155,carnarvon,-24.8667,113.6333,25.54,66,0,9.57,AU,1676223488
156,potiskum,11.7091,11.0694,26.22,16,0,5.19,NG,1676223489
157,iqaluit,63.7506,-68.5145,-30.15,67,20,2.06,CA,1676223489
158,hasaki,35.7333,140.8333,9.56,86,100,5.44,JP,1676223489
159,kidal,18.4411,1.4078,29.07,13,17,4.97,ML,1676223490
160,port elizabeth,-33.918,25.5701,24.5,88,100,7.72,ZA,1676223490
161,gawler,-34.6,138.7333,15.08,79,84,2.39,AU,1676223490
162,ponta do sol,32.6667,-17.1,18.89,80,82,2.72,PT,1676223486
163,manlleu,42.0023,2.2848,8.56,72,0,1.29,ES,1676223404
164,tiznit,29.5833,-9.5,17.53,28,100,4.8,MA,1676223491
165,naro moru,-0.1676,37.0213,12.41,52,49,1.37,KE,1676223492
166,kabinda,-6.1333,24.4833,19.68,95,97,1.76,CD,1676223492
167,lagoa,39.05,-27.9833,13.91,68,72,10.51,PT,1676223492
168,saint anthony,45.0205,-93.218,2.3,73,75,1.54,US,1676223367
169,atar,20.5169,-13.0499,29.28,16,98,4.09,MR,1676223493
170,tuatapere,-46.1333,167.6833,11.55,94,96,1.23,NZ,1676223493
171,rach gia,10.0167,105.0833,24.79,79,89,3.25,VN,1676223494
172,mugumu,-1.85,34.7,19.42,60,96,1.05,TZ,1676223494
173,baykit,61.67,96.37,-25.61,100,64,0.92,RU,1676223494
174,tasiilaq,65.6145,-37.6368,-7.91,73,96,5.08,GL,1676223495
175,puerto carreno,6.189,-67.4859,35.94,33,40,4.11,CO,1676223495
176,saldanha,-33.0117,17.9442,18.55,92,33,6.31,ZA,1676223496
177,bolobo,-2.1667,16.2333,27.28,64,83,3.99,CD,1676223496
178,fukue,32.6881,128.8419,13.6,93,100,9.38,JP,1676223497
179,nizhniy odes,63.6445,54.856,-14.93,100,99,1.35,RU,1676223497
180,sept-iles,50.2001,-66.3821,-3.3,67,20,4.63,CA,1676223337
181,salalah,17.0151,54.0924,24.05,64,0,1.03,OM,1676223498
182,wilhelmshaven,53.5167,8.1333,8.43,91,15,2.58,DE,1676223499
183,thoen,17.6129,99.2161,21.43,38,0,1.15,TH,1676223499
184,pulsano,40.3821,17.3564,11.57,55,40,4.12,IT,1676223500
185,henties bay,-22.116,14.2845,19.46,83,1,4.23,NA,1676223500
186,nanortalik,60.1432,-45.2371,-7.68,62,100,6.12,GL,1676223500
187,zhezkazgan,47.8043,67.7144,-17.96,100,100,1.31,KZ,1676223501
188,khatanga,71.9667,102.5,-18.52,98,100,1.62,RU,1676223501
189,alyangula,-13.8483,136.4192,26.67,87,100,4.91,AU,1676223502
190,geraldton,-28.7667,114.6,21.23,78,1,4.63,AU,1676223502
191,yar-sale,66.8333,70.8333,-11.41,92,75,8.09,RU,1676223502
192,bilma,18.6853,12.9164,23.59,19,2,6.47,NE,1676223503
193,ucluelet,48.9329,-125.5528,5.61,90,100,0.45,CA,1676223503
194,mangan,27.5167,88.5333,12.8,90,100,0.65,IN,1676223504
195,aklavik,68.2191,-135.0107,-33.0,68,100,0.0,CA,1676223504
196,norman wells,65.282,-126.8329,-24.98,77,75,1.03,CA,1676223504
197,saint george,37.1041,-113.5841,5.33,45,0,1.54,US,1676223505
198,pevek,69.7008,170.3133,-30.07,93,100,1.22,RU,1676223505
199,olafsvik,64.8945,-23.7142,2.7,98,100,7.55,IS,1676223395
200,qaanaaq,77.484,-69.3632,-32.86,95,56,2.33,GL,1676223506
201,tucuma,-0.1833,-50.05,29.73,64,56,2.77,BR,1676223506
202,henderson,36.0397,-114.9819,15.69,25,0,7.2,US,1676223482
203,caravelas,-17.7125,-39.2481,29.84,58,95,4.43,BR,1676223507
204,lata,40.1629,-8.3327,14.34,63,100,3.11,PT,1676223507
205,general roca,-39.0333,-67.5833,33.12,12,0,9.81,AR,1676223507
206,athens,37.9795,23.7162,10.09,58,20,5.36,GR,1676223209
207,acarau,-2.8856,-40.12,29.75,62,75,6.63,BR,1676223508
208,sochaczew,52.2294,20.2384,1.79,88,55,3.27,PL,1676223508
209,misratah,32.3754,15.0925,13.95,51,83,4.41,LY,1676223509
210,mahibadhoo,3.7833,72.9667,26.78,67,5,5.08,MV,1676223509
211,iwanai,42.9744,140.5089,-5.85,95,99,1.02,JP,1676223509
212,vardo,70.3705,31.1107,-3.01,93,75,8.23,NO,1676223510
213,jizan,17.3333,42.6667,26.52,64,2,1.65,SA,1676223510
214,lebu,-37.6167,-73.65,19.17,65,77,4.04,CL,1676223510
215,miloslavskoye,53.5815,39.4399,-7.44,90,100,8.8,RU,1676223511
216,keti bandar,24.1447,67.4497,23.37,27,0,3.45,PK,1676223511
217,lavrentiya,65.5833,-171.0,-29.21,92,67,2.7,RU,1676223512
218,laguna,38.421,-121.4238,16.16,74,0,0.45,US,1676223512
219,leningradskiy,69.3833,178.4167,-26.24,95,100,5.64,RU,1676223512
220,ronda,36.7423,-5.1671,6.12,78,31,3.33,ES,1676223513
221,acapulco,16.8634,-99.8901,29.9,62,0,1.54,MX,1676223408
222,ko samui,9.5357,99.9357,27.07,76,96,5.21,TH,1676223513
223,scarborough,54.2797,-0.4044,7.76,75,6,0.45,GB,1676223450
224,haapiti,-17.5667,-149.8667,27.85,74,82,5.45,PF,1676223514
225,fernie,49.5,-115.0687,3.05,96,100,2.5,CA,1676223514
226,chifeng,42.2683,118.9636,-8.21,51,2,2.81,CN,1676223514
227,eureka,40.8021,-124.1637,7.34,56,4,1.21,US,1676223427
228,faya,18.3851,42.4509,17.06,41,0,2.14,SA,1676223515
229,bac lieu,9.285,105.7244,24.57,86,91,2.3,VN,1676223516
230,thompson,55.7435,-97.8558,-11.91,79,100,0.0,CA,1676223516
231,maarianhamina,60.0973,19.9348,2.12,87,0,5.14,AX,1676223516
232,umm kaddadah,13.6017,26.6876,21.92,16,1,5.83,SD,1676223517
233,roald,62.5833,6.1333,9.63,87,75,12.35,NO,1676223517
234,quelimane,-17.8786,36.8883,23.97,94,75,2.57,MZ,1676223518
235,adiake,5.2863,-3.304,27.73,78,41,4.99,CI,1676223518
236,isla aguada,18.7833,-91.4667,21.02,67,100,5.41,MX,1676223519
237,hami,42.8,93.45,0.34,65,99,2.72,CN,1676223520
238,yaan,7.3833,8.5667,33.32,9,33,2.4,NG,1676223520
239,svetlyy,54.675,20.1347,3.03,94,97,7.5,RU,1676223521
240,swift current,50.2834,-107.8014,-1.55,74,0,7.2,CA,1676223521
241,talnakh,69.4865,88.3972,-12.6,93,100,8.16,RU,1676223521
242,aripuana,-9.1667,-60.6333,29.9,63,90,0.37,BR,1676223522
243,georgiyevka,43.0369,74.7114,-8.98,73,4,2.0,KZ,1676223522
244,cap malheureux,-19.9842,57.6142,25.82,67,79,2.68,MU,1676223523
245,padang,-0.9492,100.3543,24.09,88,90,1.94,ID,1676223523
246,pangnirtung,66.1451,-65.7125,-34.0,50,0,0.0,CA,1676223523
247,urdoma,61.7533,48.5442,-9.11,95,98,1.41,RU,1676223524
248,sitka,57.0531,-135.33,5.94,75,100,3.09,US,1676223354
249,causapscal,48.3542,-67.227,-0.12,86,92,5.19,CA,1676223524
250,karratha,-20.7377,116.8463,29.9,69,61,6.86,AU,1676223525
251,ust-ishim,57.6935,71.1665,-19.69,100,86,2.08,RU,1676223525
252,beloha,-25.1667,45.05,24.44,85,100,6.01,MG,1676223526
253,poum,-20.2333,164.0167,25.49,65,100,6.48,NC,1676223526
254,pleasanton,37.6624,-121.8747,14.04,70,0,0.45,US,1676223526
255,constantine,36.365,6.6147,8.67,66,20,2.06,DZ,1676223527
256,beringovskiy,63.05,179.3167,-32.93,92,79,2.97,RU,1676223527
257,whitecourt,54.1502,-115.6855,0.58,55,75,3.09,CA,1676223527
258,kayerkan,69.3497,87.7602,-12.96,91,100,10.13,RU,1676223528
259,tanete,-3.9443,119.7848,24.81,89,100,3.28,ID,1676223528
260,palana,59.1167,159.9667,-18.64,92,100,2.93,RU,1676223529
261,alindao,5.0267,21.2088,30.92,21,83,1.41,CF,1676223529
262,teknaf,20.8624,92.3058,20.25,83,3,2.9,BD,1676223529
263,ola,59.5833,151.2833,-17.53,97,99,2.89,RU,1676223530
264,tecpan,14.7623,-90.9947,16.45,50,48,3.38,GT,1676223530
265,tomatlan,19.9333,-105.25,32.37,25,8,2.68,MX,1676223530
266,merauke,-8.4667,140.3333,25.67,88,93,5.83,ID,1676223531
267,margate,51.3813,1.3862,8.28,81,84,1.34,GB,1676223531
268,springdale,36.1867,-94.1288,13.74,47,0,4.63,US,1676223531
269,chilca,-12.5211,-76.7372,24.96,76,91,3.46,PE,1676223532
270,sabha,27.0377,14.4283,13.39,27,3,3.74,LY,1676223533
271,broken hill,-31.95,141.4333,17.27,40,76,6.88,AU,1676223533
272,tecoanapa,16.5167,-98.75,28.29,62,0,3.56,MX,1676223533
273,cockburn town,21.4612,-71.1419,25.98,65,40,7.72,TC,1676223267
274,longyearbyen,78.2186,15.6401,-4.09,86,75,9.77,SJ,1676223534
275,sibolga,1.7427,98.7792,24.51,88,100,1.54,ID,1676223534
276,pangai,-19.8,-174.35,26.06,89,75,3.6,TO,1676223535
277,uwajima,33.2238,132.56,12.36,93,100,3.47,JP,1676223535
278,chapais,49.7834,-74.8492,-10.12,77,88,2.79,CA,1676223535
279,yining,29.0361,114.5636,8.48,93,100,1.75,CN,1676223536
280,touros,-5.1989,-35.4608,29.94,62,99,6.91,BR,1676223536
281,sorong,-0.8833,131.25,26.89,81,100,3.13,ID,1676223536
282,salina cruz,16.1667,-95.2,25.97,48,1,14.3,MX,1676223406
283,hervey bay,-25.2986,152.8535,25.68,85,1,6.9,AU,1676223537
284,boyarka,50.3191,30.2973,-0.48,78,29,5.17,UA,1676223268
285,vila franca do campo,37.7167,-25.4333,16.23,80,68,4.13,PT,1676223537
286,cam ranh,11.9214,109.1591,23.98,88,20,1.03,VN,1676223538
287,diamantino,-14.4086,-56.4461,30.57,64,92,0.26,BR,1676223538
288,namibe,-15.1961,12.1522,23.18,74,18,6.64,AO,1676223538
289,kieta,-6.2167,155.6333,26.13,84,100,2.8,PG,1676223539
290,khorramabad,33.4878,48.3558,5.79,93,100,0.0,IR,1676223539
291,fortuna,40.5982,-124.1573,7.19,100,100,0.0,US,1676223310
292,kahului,20.8947,-156.47,22.13,86,75,4.12,US,1676223540
293,kultuk,51.7208,103.6956,-15.95,90,7,2.43,RU,1676223540
294,port keats,-14.25,129.55,24.21,92,100,2.92,AU,1676223540
295,tromso,69.6496,18.957,4.01,60,75,18.52,NO,1676223541
296,lom sak,16.7798,101.2422,24.77,47,73,0.48,TH,1676223541
297,ostrovnoy,68.0531,39.5131,-4.79,88,100,10.61,RU,1676223542
298,blackwater,-23.5833,148.8833,25.26,60,30,3.47,AU,1676223542
299,bengkulu,-3.8004,102.2655,23.86,83,91,2.32,ID,1676223543
300,qinnan,33.2531,119.9133,5.27,93,100,6.28,CN,1676223543
301,pringsewu,-5.3582,104.9744,22.09,94,100,0.74,ID,1676223544
302,flinders,-34.5833,150.8552,19.54,91,100,1.79,AU,1676223545
303,vanimo,-2.6741,141.3028,25.11,91,100,3.3,PG,1676223545
304,eppingen,49.1369,8.9103,8.34,92,26,2.95,DE,1676223545
305,buy,58.4786,41.53,-18.73,100,69,1.69,RU,1676223546
306,luba,3.4568,8.5547,30.94,78,57,4.06,GQ,1676223546
307,brainerd,46.358,-94.2008,2.16,75,0,0.0,US,1676223547
308,walvis bay,-22.9575,14.5053,23.53,60,16,7.72,NA,1676223547
309,havelock,34.8791,-76.9013,18.0,86,75,4.12,US,1676223512
310,istok,42.7808,20.4875,1.33,84,77,1.96,XK,1676223548
311,aurangabad,19.8833,75.3333,21.63,26,1,3.3,IN,1676223548
312,kysyl-syr,63.8986,122.7617,-38.94,100,82,1.75,RU,1676223548
313,sao joao da barra,-21.6403,-41.0511,31.05,83,94,5.63,BR,1676223549
314,chimbarongo,-34.7,-71.05,26.49,16,0,2.78,CL,1676223549
315,whitehorse,60.7161,-135.0538,-4.57,93,75,5.14,CA,1676223549
316,port augusta,-32.5,137.7667,17.71,59,100,4.79,AU,1676223550
317,kalispell,48.1958,-114.3129,-0.13,81,100,0.0,US,1676223305
318,muros,42.7762,-9.0603,14.82,63,81,0.35,ES,1676223550
319,ambulu,-8.345,113.6058,23.93,94,99,3.99,ID,1676223551
320,karaman,37.0833,33.25,-11.14,95,7,1.37,TR,1676223551
321,bundaberg,-24.85,152.35,26.79,91,2,1.79,AU,1676223551
322,tutoia,-2.7619,-42.2744,29.02,65,51,5.34,BR,1676223552
323,haines junction,60.7522,-137.5108,-12.03,85,98,1.03,CA,1676223552
324,tateyama,34.9833,139.8667,13.96,94,75,6.69,JP,1676223553
325,codrington,-38.2667,141.9667,14.22,62,99,4.48,AU,1676223553
326,andenes,69.3143,16.1194,3.99,65,75,15.95,NO,1676223553
327,moree,-29.4667,149.85,20.77,35,0,3.18,AU,1676223554
328,aginskoye,51.1,114.53,-13.67,79,4,7.54,RU,1676223554
329,inongo,-1.95,18.2667,26.39,73,96,5.23,CD,1676223554
330,taldan,53.6667,124.8,-22.31,99,84,1.3,RU,1676223555
331,makokou,0.5738,12.8642,27.81,55,64,1.85,GA,1676223555
332,lancaster,40.2504,-76.2499,6.69,57,0,0.45,US,1676223350
333,lanigan,51.8501,-105.0344,-4.06,89,6,5.49,CA,1676223556
334,mayo,38.8876,-76.5119,6.73,85,100,3.09,US,1676223556
335,kasempa,-13.4584,25.8338,20.16,82,98,0.52,ZM,1676223556
336,vila,42.0304,-8.1588,9.49,69,83,1.82,PT,1676223399
337,catamayo,-3.9833,-79.35,27.14,42,75,6.17,EC,1676223557
338,san cristobal,7.7669,-72.225,24.1,49,79,2.8,VE,1676223316
339,nouakchott,18.0858,-15.9785,25.96,52,100,6.55,MR,1676223428
340,coihaique,-45.5752,-72.0662,14.34,38,40,4.63,CL,1676223558
341,parintins,-2.6283,-56.7358,29.83,66,69,2.01,BR,1676223558
342,riberalta,-10.9833,-66.1,29.11,70,75,3.09,BO,1676223559
343,bowen,-20.0167,148.2333,25.73,74,66,3.3,AU,1676223559
344,fare,-16.7,-151.0167,27.44,75,92,5.05,PF,1676223560
345,blagoveshchensk,50.2667,127.5333,-18.66,71,0,2.0,RU,1676223405
346,kisanga,-7.4362,37.7034,25.43,75,54,3.28,TZ,1676223560
347,mwense,-10.3845,28.698,19.47,88,100,1.16,ZM,1676223561
348,nehe,48.4833,124.8333,-23.14,95,39,1.17,CN,1676223561
349,anadyr,64.75,177.4833,-31.72,75,20,5.0,RU,1676223561
350,itoman,26.1247,127.6694,22.01,88,20,7.72,JP,1676223562
351,neyshabur,36.2133,58.7958,1.61,97,100,1.31,IR,1676223562
352,jardim,-21.4803,-56.1381,26.02,73,65,2.89,BR,1676223562
353,santa isabel do rio negro,-0.4139,-65.0192,29.5,76,59,0.69,BR,1676223563
354,clyde river,70.4692,-68.5914,-34.87,68,0,2.06,CA,1676223563
355,dogondoutchi,13.6393,4.0287,29.27,11,0,4.54,NE,1676223563
356,nago,26.5881,127.9761,21.24,83,55,5.02,JP,1676223564
357,petauke,-14.2426,31.3253,18.7,99,100,1.77,ZM,1676223565
358,tabou,4.423,-7.3528,28.42,76,15,3.55,CI,1676223565
359,paita,-5.0892,-81.1144,27.93,61,57,4.54,PE,1676223565
360,ust-ilimsk,58.0006,102.6619,-21.35,99,55,2.08,RU,1676223488
361,youkounkoun,12.5333,-13.1333,39.0,13,54,2.35,GN,1676223566
362,yulara,-25.2406,130.9889,30.77,21,72,7.74,AU,1676223566
363,dunedin,-45.8742,170.5036,14.33,78,47,1.34,NZ,1676223567
364,port hardy,50.6996,-127.4199,6.1,93,100,6.17,CA,1676223567
365,rongcheng,30.634,117.8517,8.14,94,100,3.38,CN,1676223567
366,phanat nikhom,13.4458,101.1844,28.5,99,56,4.33,TH,1676223568
367,sangar,63.9242,127.4739,-31.61,99,100,1.31,RU,1676223568
368,dire,12.2833,-10.9667,39.74,8,3,3.06,ML,1676223569
369,callaway,30.153,-85.5699,12.77,70,100,8.75,US,1676223569
370,lac du bonnet,50.2536,-96.0612,-0.17,83,75,4.75,CA,1676223570
371,kapoeta,4.7717,33.5903,30.97,16,17,4.01,SS,1676223570
372,sayyan,15.1718,44.3244,13.71,33,1,1.2,YE,1676223570
373,belle fourche,44.6714,-103.8522,10.05,29,20,4.41,US,1676223571
374,husavik,66.0449,-17.3389,0.61,79,100,5.74,IS,1676223571
375,okahandja,-21.9833,16.9167,26.14,27,0,7.46,NA,1676223571
376,chabahar,25.2919,60.643,21.72,61,0,1.27,IR,1676223572
377,pangoa,-12.1167,-73.0,26.03,69,97,2.63,PE,1676223572
378,bairiki,1.3292,172.9752,26.0,89,40,3.09,KI,1676223573
379,sandwick,60.0,-1.25,8.9,81,20,7.2,GB,1676223573
380,uyemskiy,64.4743,40.8524,-7.97,86,100,4.0,RU,1676223573
381,doha,25.2867,51.5333,20.17,83,95,5.66,QA,1676223574
382,wajid,3.8093,43.2471,28.33,22,1,5.09,SO,1676223574
383,carstairs,51.5668,-114.102,0.82,78,66,3.34,CA,1676223554
384,belmonte,-15.8631,-38.8828,28.87,65,9,3.75,BR,1676223575
385,meulaboh,4.1363,96.1285,24.67,89,99,1.97,ID,1676223575
386,abha,18.2164,42.5053,16.9,72,0,2.06,SA,1676223409
387,smithers,54.7804,-127.1743,1.18,100,100,5.14,CA,1676223310
388,malibu,34.005,-118.8101,14.92,71,88,1.79,US,1676223576
389,bodo,67.28,14.405,5.25,68,75,16.46,NO,1676223497
390,fallon,39.4735,-118.7774,5.81,54,40,1.54,US,1676223576
391,maceio,-9.6658,-35.7353,27.69,78,75,3.09,BR,1676223246
392,aleksandrov gay,50.147,48.5704,-4.64,95,100,7.15,RU,1676223577
393,turukhansk,65.8167,87.9833,-15.19,93,99,8.21,RU,1676223577
394,la florida,1.2985,-77.4061,18.37,68,100,1.54,CO,1676223578
395,aimores,-19.4958,-41.0639,30.16,60,100,0.25,BR,1676223578
396,guerrero negro,27.9769,-114.0611,14.71,59,87,3.36,MX,1676223578
397,ambanja,-13.6833,48.45,24.09,92,100,1.37,MG,1676223579
398,santa rosa,14.3122,121.1114,25.62,79,3,3.08,PH,1676223385
399,mecca,21.4267,39.8261,22.99,66,7,3.4,SA,1676223437
400,samfya,-11.3649,29.5565,19.1,92,86,1.83,ZM,1676223579
401,susangerd,31.5608,48.1831,15.96,59,100,5.79,IR,1676223580
402,narsaq,60.9167,-46.05,-18.88,70,100,1.33,GL,1676223580
403,san carlos,9.6612,-68.5827,35.12,30,50,2.69,VE,1676223581
404,vilhena,-12.7406,-60.1458,30.12,58,75,3.6,BR,1676223581
405,agirish,61.9247,63.0231,-9.81,95,100,3.41,RU,1676223581
406,cayenne,4.9333,-52.3333,29.02,74,100,6.69,GF,1676223375
407,sumoto,34.35,134.9,10.02,93,100,3.69,JP,1676223582
408,the valley,18.217,-63.0578,27.92,69,40,8.23,AI,1676223582
409,banos,-1.4,-78.4167,21.17,70,99,2.26,EC,1676223582
410,saint-louis,16.3333,-15.0,33.8,17,82,5.83,SN,1676223583
411,hammerfest,70.6634,23.6821,2.25,80,75,15.43,NO,1676223583
412,yokadouma,3.5167,15.05,28.58,19,56,0.14,CM,1676223584
413,sheksna,59.21,38.5107,-9.02,100,63,1.86,RU,1676223584
414,superior,46.7208,-92.1041,4.85,67,0,1.54,US,1676223584
415,kibuye,-2.0597,29.3482,20.16,72,80,1.49,RW,1676223585
416,raga,8.4596,25.678,28.61,21,67,2.2,SS,1676223585
417,lashio,22.9333,97.75,11.67,54,0,0.92,MM,1676223585
418,lodja,-3.4833,23.4333,21.73,99,76,1.13,CD,1676223586
419,banjar,-8.19,114.9675,25.03,91,72,3.18,ID,1676223586
420,jiazi,22.8779,116.067,19.56,95,62,1.21,CN,1676223587
421,busdi,8.2761,125.2514,19.2,94,86,1.54,PH,1676223587
422,catuday,16.2923,119.8062,24.58,76,0,3.51,PH,1676223587
423,gorontalo,0.5412,123.0595,23.25,94,76,1.73,ID,1676223588
424,tambovka,50.0969,128.0489,-27.21,100,64,1.94,RU,1676223588
425,paka,4.6374,103.4368,24.96,94,98,0.51,MY,1676223589
426,fomboni,-12.28,43.7425,27.25,71,100,0.58,KM,1676223589
427,gizo,-8.103,156.8419,27.69,77,100,2.83,SB,1676223590
428,blythe,33.6103,-114.5964,17.8,35,0,3.6,US,1676223590
429,alice springs,-23.7,133.8833,22.75,46,0,2.57,AU,1676223591
430,port-gentil,-0.7193,8.7815,28.98,84,20,5.66,GA,1676223591
431,santo antonio do amparo,-20.9464,-44.9189,23.83,79,68,3.32,BR,1676223592
432,tiksi,71.6872,128.8694,-41.49,100,74,1.23,RU,1676223592
433,coquimbo,-29.9533,-71.3436,20.85,73,75,4.12,CL,1676223592
434,acajutla,13.5928,-89.8275,32.03,43,2,3.47,SV,1676223593
435,deputatskiy,69.3,139.9,-36.99,100,100,0.45,RU,1676223593
436,jalingo,8.8833,11.3667,30.83,10,71,2.69,NG,1676223593
437,ares,-6.1944,-35.1603,30.05,56,100,6.02,BR,1676223594
438,goure,13.9835,10.2704,25.35,15,0,4.31,NE,1676223594
439,souillac,-20.5167,57.5167,26.21,69,40,3.09,MU,1676223595
440,lae,-6.7221,146.9847,24.89,90,100,2.6,PG,1676223595
441,matagami,49.7502,-77.6328,-10.94,73,100,1.54,CA,1676223595
442,mackay,-21.15,149.2,23.16,82,22,5.66,AU,1676223596
443,mildura,-34.2,142.15,15.04,60,100,5.71,AU,1676223596
444,atambua,-9.1061,124.8925,22.63,91,98,1.13,ID,1676223597
445,flagstaff,35.1981,-111.6513,9.22,41,0,3.6,US,1676223356
446,kantunilkin,21.0917,-87.45,25.27,44,10,3.1,MX,1676223597
447,kihei,20.785,-156.4656,22.13,85,75,4.12,US,1676223598
448,shahr-e babak,30.1165,55.1186,10.33,53,77,4.51,IR,1676223598
449,yantal,56.8471,105.2542,-22.83,100,59,1.88,RU,1676223599
450,zhigansk,66.7697,123.3711,-39.08,97,22,4.72,RU,1676223599
451,mamallapuram,12.6264,80.1722,24.03,68,33,2.66,IN,1676223599
452,araouane,18.9048,-3.5265,30.72,9,73,3.8,ML,1676223600
453,sitrah,26.1547,50.6206,21.12,71,0,4.12,BH,1676223602
454,shimoda,34.6667,138.95,11.72,91,100,3.09,JP,1676223602
455,gat,31.61,34.7642,11.38,100,66,1.84,IL,1676223541
456,neiafu,-18.65,-173.9833,27.38,89,75,3.6,TO,1676223603
457,mancio lima,-7.6142,-72.8958,30.04,70,75,2.57,BR,1676223604
458,muncar,-8.4333,114.3333,24.17,91,99,4.29,ID,1676223604
459,mansa,29.9833,75.3833,8.23,19,0,3.84,IN,1676223605
460,marsaxlokk,35.8419,14.5431,10.34,76,40,2.06,MT,1676223605
461,krasnoselkup,65.7,82.4667,-13.74,92,100,9.45,RU,1676223606
462,ugoofaaru,5.6667,73.0,26.84,69,5,3.61,MV,1676223606
463,cherskiy,68.75,161.3,-41.72,100,72,0.46,RU,1676223607
464,sofiyivka,48.0493,33.8746,-3.25,76,16,8.19,UA,1676223608
465,feuchtwangen,49.1667,10.3333,4.77,95,57,2.59,DE,1676223608
466,charters towers,-20.1,146.2667,23.0,62,18,3.0,AU,1676223609
467,kortkeros,61.8106,51.5806,-7.0,97,100,1.66,RU,1676223609
468,itarema,-2.9248,-39.9167,29.86,60,81,6.49,BR,1676223610
469,russell,32.3502,-85.1999,10.23,76,75,7.2,US,1676223610
470,dubbo,-32.25,148.6167,17.07,88,1,2.06,AU,1676223610
471,manono,-7.3,27.4167,21.79,94,83,1.42,CD,1676223611
472,alofi,-19.0595,-169.9187,23.94,100,100,1.03,NU,1676223611
473,bihoro,43.8228,144.1044,-5.18,98,86,1.1,JP,1676223612
474,gaozhou,21.9392,110.8461,22.37,87,30,4.22,CN,1676223612
475,luwuk,-0.9516,122.7875,25.93,78,100,1.34,ID,1676223613
476,ozernovskiy,51.5,156.5167,-8.43,75,100,2.97,RU,1676223613
477,huarmey,-10.0681,-78.1522,24.28,79,100,3.73,PE,1676223613
478,los llanos de aridane,28.6585,-17.9182,16.86,73,40,1.34,ES,1676223614
479,sambava,-14.2667,50.1667,25.13,87,25,3.65,MG,1676223614
480,bom sucesso,-21.0331,-44.7581,24.48,77,69,3.39,BR,1676223615
481,riyadh,24.6877,46.7219,22.08,25,99,4.76,SA,1676223294
482,klaeng,12.7797,101.6483,27.23,100,32,2.36,TH,1676223615
483,yarada,17.65,83.2667,25.18,100,7,1.03,IN,1676223616
484,mount pleasant,32.7941,-79.8626,13.99,88,20,8.23,US,1676223616
485,bom jardim,-7.7958,-35.5872,29.45,50,95,5.4,BR,1676223617
486,buraydah,26.326,43.975,17.25,25,88,6.74,SA,1676223406
487,mabaruma,8.2,-59.7833,27.13,75,22,3.35,GY,1676223617
488,tselinnoye,53.0833,85.6667,-13.69,97,100,0.8,RU,1676223618
489,hambantota,6.1241,81.1185,23.46,83,97,5.31,LK,1676223618
490,ayan,56.45,138.1667,-25.06,86,18,2.71,RU,1676223618
491,la ronge,55.1001,-105.2842,-0.86,74,75,5.66,CA,1676223619
492,taoudenni,22.6783,-3.9836,27.13,17,92,9.16,ML,1676223619
493,azuaga,38.2667,-5.6833,13.31,51,82,2.35,ES,1676223620
494,cravo norte,6.3017,-70.2041,36.09,29,46,4.59,CO,1676223620
495,kungurtug,50.5994,97.5228,-24.73,94,14,1.03,RU,1676223621
496,halifax,44.6453,-63.5724,6.92,61,84,8.23,CA,1676223574
497,iracoubo,5.4802,-53.2011,26.23,83,88,5.51,GF,1676223621
498,inzer,54.2167,57.5556,-16.46,98,100,1.8,RU,1676223622
499,bandarbeyla,9.4942,50.8122,24.33,68,0,6.77,SO,1676223622
500,kavaratti,10.5669,72.642,26.79,71,6,2.71,IN,1676223622
501,emba,48.8264,58.1442,-12.26,94,90,2.97,KZ,1676223623
502,port-cartier,50.0334,-66.8654,-3.47,75,70,5.28,CA,1676223623
503,jagannathpur,22.2333,85.65,18.01,23,0,2.33,IN,1676223624
504,kovdor,67.5662,30.4758,-0.8,74,100,6.78,RU,1676223624
505,lasa,46.6166,10.7002,10.49,79,26,0.96,IT,1676223624
506,ahipara,-35.1667,173.1667,18.96,93,100,9.43,NZ,1676223625
507,esperance,-33.8667,121.9,15.51,76,1,4.63,AU,1676223625
508,bilibino,68.0546,166.4372,-35.77,99,46,2.06,RU,1676223626
509,cabedelo,-6.9811,-34.8339,31.37,68,97,5.79,BR,1676223626
510,madang,-5.2246,145.7966,24.01,96,100,1.22,PG,1676223627
511,jati,24.3539,68.2671,22.84,16,0,4.61,PK,1676223627
512,vilyuysk,63.7553,121.6247,-40.88,100,79,1.69,RU,1676223628
513,maniitsoq,65.4167,-52.9,-19.97,88,31,3.41,GL,1676223628
514,asau,46.4333,26.4,-0.49,95,28,1.86,RO,1676223628
515,fort-shevchenko,44.5086,50.263,3.48,91,73,3.93,KZ,1676223629
516,tongliao,43.6125,122.2653,-11.16,75,0,4.97,CN,1676223629
517,corrales,35.2378,-106.6067,13.77,33,75,3.09,US,1676223629
518,lincoln,40.8,-96.667,10.64,44,0,3.13,US,1676223630
519,ghanzi,-21.5667,21.7833,27.71,28,21,3.47,BW,1676223630
520,tsumeb,-19.2333,17.7167,26.78,33,55,3.49,NA,1676223631
521,baruun-urt,46.6806,113.2792,-20.23,92,5,2.25,MN,1676223631
522,rio de jesus,7.9844,-81.1631,33.48,38,28,7.8,PA,1676223631
523,pemba,-12.974,40.5178,22.39,100,100,2.06,MZ,1676223632
524,valdivia,-39.8142,-73.2459,20.05,57,88,3.45,CL,1676223632
525,partizanskoye,55.5006,94.39,-24.06,100,57,0.35,RU,1676223633
526,teguldet,57.3064,88.1667,-20.81,100,82,1.63,RU,1676223634
527,camacha,33.0833,-16.3333,16.68,72,40,4.63,PT,1676223634
528,tucupita,9.0622,-62.051,29.83,54,67,3.29,VE,1676223635
529,lima,-12.0432,-77.0282,27.14,65,0,7.2,PE,1676223112
530,manokwari,-0.8667,134.0833,25.48,82,89,3.75,ID,1676223635
531,sala consilina,40.3912,15.5989,6.88,85,99,3.12,IT,1676223636
532,benemerito de las americas,16.5167,-90.6439,17.41,97,100,0.54,MX,1676223636
533,kropotkin,45.4375,40.5756,1.23,88,100,7.81,RU,1676223637
534,pisco,-13.7,-76.2167,26.03,78,40,3.6,PE,1676223637
535,hamilton,39.1834,-84.5333,11.6,26,0,5.66,US,1676223397
536,lozova,48.8894,36.3176,-5.1,85,100,6.65,UA,1676223637
537,potosi,-19.5836,-65.7531,14.73,45,50,3.78,BO,1676223339
538,graaff-reinet,-32.2522,24.5308,26.07,42,31,4.7,ZA,1676223638
539,wanaka,-44.7,169.15,13.39,76,49,0.89,NZ,1676223638
540,soyo,-6.1349,12.3689,26.72,82,10,5.37,AO,1676223639
541,voh,-20.9667,164.7,22.86,72,99,1.38,NC,1676223639
542,port blair,11.6667,92.75,25.02,78,100,0.51,IN,1676223639
543,corvallis,44.5646,-123.262,6.72,100,100,0.0,US,1676223640
544,bar harbor,44.3876,-68.2039,6.66,47,100,3.13,US,1676223640
545,san policarpo,12.1791,125.5072,26.35,78,56,6.41,PH,1676223640
546,birin,26.8865,88.0718,7.92,60,0,2.28,NP,1676223641
547,mahina,-17.5065,-149.489,27.87,69,75,1.54,PF,1676223641
548,tarauaca,-8.1614,-70.7656,25.51,85,100,1.22,BR,1676223641
549,lanquin,15.5667,-89.9667,19.85,94,100,1.5,GT,1676223642
550,yeppoon,-23.1333,150.7333,24.88,87,1,1.42,AU,1676223642
551,mount gambier,-37.8333,140.7667,13.75,64,64,2.86,AU,1676223643
552,emiliano zapata,18.8333,-99.1833,24.26,35,0,1.03,MX,1676223643
553,magadan,59.5667,150.8,-17.16,96,100,3.18,RU,1676223643
554,port macquarie,-31.4333,152.9167,19.38,91,35,4.72,AU,1676223533
555,awbari,26.5921,12.7805,13.0,24,5,3.54,LY,1676223644
556,seoul,37.5683,126.9778,6.66,70,75,2.57,KR,1676223468
557,talakan,50.3167,130.3667,-26.66,100,98,0.43,RU,1676223644
558,mareeba,-17.0,145.4333,23.4,88,98,1.17,AU,1676223645
559,linxia,35.6003,103.2064,-4.6,92,100,2.11,CN,1676223645
560,torbay,47.6666,-52.7314,-4.68,65,66,6.71,CA,1676223646
561,mindelo,16.8901,-24.9804,21.75,56,100,9.26,CV,1676223646
562,sosnovo-ozerskoye,52.5249,111.5418,-19.1,93,20,4.61,RU,1676223646
563,scandiano,44.5965,10.6907,10.81,47,0,0.89,IT,1676223647
564,christchurch,-43.5333,172.6333,17.17,88,100,1.03,NZ,1676223593
565,mantua,45.1667,10.7833,10.34,66,0,2.68,IT,1676223647
566,kuli,42.0185,47.2434,-12.95,52,1,4.39,RU,1676223648
567,tahe,52.3333,124.7333,-23.52,99,36,1.69,CN,1676223648
568,rockhampton,-23.3833,150.5,24.94,83,3,2.57,AU,1676223649
569,lucea,18.451,-78.1736,28.81,64,0,4.92,JM,1676223649
